{"type": "FeatureCollection", "features": [{"geometry": {"type": "Point", "coordinates": [-73.8166179, 40.7552678]}, "type": "Feature", "properties": {"Type": "Hospital", "Name": "Flushing Hospital Medical Center EMS", "Address": "4500 Parson Blvd, Flushing, NY, 11355"}}, {"geometry": {"type": "Point", "coordinates": [-73.81625989999999, 40.7004297]}, "type": "Feature", "properties": {"Type": "Hospital", "Name": "Jamaica Hospital Medical Center EMS", "Address": "8900 Van Wyck Expressway, Jamaica, NY, 11418"}}, {"geometry": {"type": "Point", "coordinates": [-73.9607736, 40.7738805]}, "type": "Feature", "properties": {"Type": "Hospital", "Name": "Lenox Hill Hospital EMS", "Address": "100 East 77th Street, New York, NY, 10021"}}, {"geometry": {"type": "Point", "coordinates": [-73.9973547, 40.6905942]}, "type": "Feature", "properties": {"Type": "Hospital", "Name": "SUNY Downstate Medical Center - Long Island College Hospital EMS", "Address": "339 Hicks Street, Brooklyn, NY, 11201"}}, {"geometry": {"type": "Point", "coordinates": [-73.5073769, 40.8113455]}, "type": "Feature", "properties": {"Type": "Hospital", "Name": "Long Island Jewish Medical Center  North Shore University Hospital EMS", "Address": "15 Burke Lane Syosset, NY, 11791"}}, {"geometry": {"type": "Point", "coordinates": [-74.0215371, 40.6467581]}, "type": "Feature", "properties": {"Type": "Hospital", "Name": "Lutheran Medical Center EMS", "Address": "150-55th Street, Brooklyn, NY, 11220"}}, {"geometry": {"type": "Point", "coordinates": [-73.99849680000001, 40.6394543]}, "type": "Feature", "properties": {"Type": "Hospital", "Name": "Maimonides Medical Center EMS", "Address": "4802 Tenth Ave, Brooklyn, NY, 11219"}}, {"geometry": {"type": "Point", "coordinates": [-73.86112419999999, 40.8937532]}, "type": "Feature", "properties": {"Type": "Hospital", "Name": "Montefiore North Dvision EMS", "Address": "600 East 233rd Street, Bronx, NY, 10466"}}, {"geometry": {"type": "Point", "coordinates": [-73.826124, 40.747198]}, "type": "Feature", "properties": {"Type": "Hospital", "Name": "New York Hospital Queens EMS", "Address": "56-45 Main Street, Flushing, NY, 11355"}}, {"geometry": {"type": "Point", "coordinates": [-73.9546173, 40.7644929]}, "type": "Feature", "properties": {"Type": "Hospital", "Name": "New York Presbyterian Hospital EMS", "Address": "525 East 68th Street, New York, NY, 10021"}}, {"geometry": {"type": "Point", "coordinates": [-74.10596199999999, 40.6357924]}, "type": "Feature", "properties": {"Type": "Hospital", "Name": "Richmond Univeristy Medical Center of Staten Island EMS", "Address": "355 Bard Avenue Staten Island, New York, NY, 10310"}}, {"geometry": {"type": "Point", "coordinates": [-73.9868805, 40.7697168]}, "type": "Feature", "properties": {"Type": "Hospital", "Name": "St. Luke's / Roosevelt Hospital Center EMS", "Address": "1000 Tenth Avenue, New York, NY, 10019"}}, {"geometry": {"type": "Point", "coordinates": [-74.0858104, 40.5844375]}, "type": "Feature", "properties": {"Type": "Hospital", "Name": "Staten Island University Hospital EMS", "Address": "475 Seaview Avenue, Staten Island, NY, 10305"}}, {"geometry": {"type": "Point", "coordinates": [-73.917684, 40.704168]}, "type": "Feature", "properties": {"Type": "Hospital", "Name": "Wyckoff Hospital EMS", "Address": "374 Stockholm Street Brooklyn, NY, 11237"}}, {"geometry": {"type": "Point", "coordinates": [-74.0076801, 40.7035418]}, "type": "Feature", "properties": {"Type": "FDNY", "Name": "Engine 4/Ladder 15", "Address": "42 South Street, Manhattan, New York"}}, {"geometry": {"type": "Point", "coordinates": [-74.0123761, 40.7098978]}, "type": "Feature", "properties": {"Type": "FDNY", "Name": "Engine 10/Ladder 10", "Address": "124 Liberty Street, Manhattan, New York"}}, {"geometry": {"type": "Point", "coordinates": [-74.0054139, 40.7099778]}, "type": "Feature", "properties": {"Type": "FDNY", "Name": "Engine 6", "Address": "49 Beekman Street, Manhattan, New York"}}, {"geometry": {"type": "Point", "coordinates": [-74.006194, 40.7153634]}, "type": "Feature", "properties": {"Type": "FDNY", "Name": "Engine 7/Ladder 1/Battalion 1/Manhattan Borough Command", "Address": "100 Duane Street, Manhattan, New York"}}, {"geometry": {"type": "Point", "coordinates": [-74.0066152, 40.7195662]}, "type": "Feature", "properties": {"Type": "FDNY", "Name": "Ladder 8", "Address": "14 North Moore Street, Manhattan, New York"}}, {"geometry": {"type": "Point", "coordinates": [-73.9928958, 40.7153116]}, "type": "Feature", "properties": {"Type": "FDNY", "Name": "Engine 9/Ladder 6", "Address": "75 Canal Street, Manhattan, New York"}}, {"geometry": {"type": "Point", "coordinates": [-73.98361299999999, 40.7165272]}, "type": "Feature", "properties": {"Type": "FDNY", "Name": "Engine 15/Ladder 18/Battalion 4", "Address": "25 Pitt Street, Manhattan, New York"}}, {"geometry": {"type": "Point", "coordinates": [-73.9825439, 40.7218503]}, "type": "Feature", "properties": {"Type": "FDNY", "Name": "Engine 28/Ladder 11", "Address": "222 East 2nd Street, Manhattan, New York"}}, {"geometry": {"type": "Point", "coordinates": [-73.98345429999999, 40.7314264]}, "type": "Feature", "properties": {"Type": "FDNY", "Name": "Engine 5", "Address": "340 East 14th Street, Manhattan, New York"}}, {"geometry": {"type": "Point", "coordinates": [-73.995771, 40.719807]}, "type": "Feature", "properties": {"Type": "FDNY", "Name": "Engine 55", "Address": "363 Broome Street, Manhattan, New York"}}, {"geometry": {"type": "Point", "coordinates": [-73.996554, 40.7229545]}, "type": "Feature", "properties": {"Type": "FDNY", "Name": "Ladder 20/Division 1", "Address": "253 Lafayette Street, Manhattan, New York"}}, {"geometry": {"type": "Point", "coordinates": [-74.00353, 40.728062]}, "type": "Feature", "properties": {"Type": "FDNY", "Name": "Engine 24/Ladder 5/Battalion 2", "Address": "227 6th Avenue, Manhattan, New York"}}, {"geometry": {"type": "Point", "coordinates": [-73.992513, 40.727002]}, "type": "Feature", "properties": {"Type": "FDNY", "Name": "Engine 33/Ladder 9", "Address": "42 Great Jones Street, Manhattan, New York"}}, {"geometry": {"type": "Point", "coordinates": [-73.98942749999999, 40.7331055]}, "type": "Feature", "properties": {"Type": "FDNY", "Name": "Ladder 3/Battalion 6", "Address": "108 East 13th Street, Manhattan, New York"}}, {"geometry": {"type": "Point", "coordinates": [-74.0003558, 40.73443779999999]}, "type": "Feature", "properties": {"Type": "FDNY", "Name": "Squad 18", "Address": "132 West 10th Street, Manhattan, New York"}}, {"geometry": {"type": "Point", "coordinates": [-73.9965003, 40.7565438]}, "type": "Feature", "properties": {"Type": "FDNY", "Name": "Engine 34/Ladder 21", "Address": "440 West 38th Street, Manhattan, New York"}}, {"geometry": {"type": "Point", "coordinates": [-73.99043499999999, 40.7532056]}, "type": "Feature", "properties": {"Type": "FDNY", "Name": "Engine 26", "Address": "220 West 37th Street, Manhattan, New York"}}, {"geometry": {"type": "Point", "coordinates": [-73.99681869999999, 40.7413287]}, "type": "Feature", "properties": {"Type": "FDNY", "Name": "Engine 3/Ladder 12/Battalion 7", "Address": "150 West 19th Street, Manhattan, New York"}}, {"geometry": {"type": "Point", "coordinates": [-73.991091, 40.7484918]}, "type": "Feature", "properties": {"Type": "FDNY", "Name": "Engine 1/Ladder 24", "Address": "142 West 31st Street, Manhattan, New York"}}, {"geometry": {"type": "Point", "coordinates": [-73.9910001, 40.7379581]}, "type": "Feature", "properties": {"Type": "FDNY", "Name": "Engine 14", "Address": "14 East 18th Street, Manhattan, New York"}}, {"geometry": {"type": "Point", "coordinates": [-73.9788189, 40.7418899]}, "type": "Feature", "properties": {"Type": "FDNY", "Name": "Engine 16 / Ladder 7", "Address": "234 East 29th Street, Manhattan, New York"}}, {"geometry": {"type": "Point", "coordinates": [-73.9740047, 40.7486678]}, "type": "Feature", "properties": {"Type": "FDNY", "Name": "Engine 21", "Address": "238 East 40th Street, Manhattan, New York"}}, {"geometry": {"type": "Point", "coordinates": [-73.9868279, 40.7607764]}, "type": "Feature", "properties": {"Type": "FDNY", "Name": "Engine 54/Ladder 4/Battalion 9", "Address": "782 8th Avenue, Manhattan, New York"}}, {"geometry": {"type": "Point", "coordinates": [-73.9803517, 40.7667707]}, "type": "Feature", "properties": {"Type": "FDNY", "Name": "Engine 23", "Address": "215 West 58th Street, Manhattan, New York"}}, {"geometry": {"type": "Point", "coordinates": [-73.9965515, 40.7607499]}, "type": "Feature", "properties": {"Type": "FDNY", "Name": "Rescue 1", "Address": "530 West 43rd Street, Manhattan, New York"}}, {"geometry": {"type": "Point", "coordinates": [-73.9842884, 40.7743385]}, "type": "Feature", "properties": {"Type": "FDNY", "Name": "Engine 40/Ladder 35", "Address": "131 Amsterdam Avenue, Manhattan, New York"}}, {"geometry": {"type": "Point", "coordinates": [-73.97981159999999, 40.7823035]}, "type": "Feature", "properties": {"Type": "FDNY", "Name": "Ladder 25/District Office 4/Division 3", "Address": "205 West 77th Street, Manhattan, New York"}}, {"geometry": {"type": "Point", "coordinates": [-73.9745452, 40.784717]}, "type": "Feature", "properties": {"Type": "FDNY", "Name": "Engine 74", "Address": "120 West 83rd Street, Manhattan, New York"}}, {"geometry": {"type": "Point", "coordinates": [-73.9819037, 40.7550513]}, "type": "Feature", "properties": {"Type": "FDNY", "Name": "Engine 65", "Address": "33 West 43rd Street, Manhattan, New York"}}, {"geometry": {"type": "Point", "coordinates": [-73.9707858, 40.7567621]}, "type": "Feature", "properties": {"Type": "FDNY", "Name": "Engine 8 / Ladder 2 / Battalion 8", "Address": "167 East 51st Street, Manhattan, New York"}}, {"geometry": {"type": "Point", "coordinates": [-73.963526, 40.767252]}, "type": "Feature", "properties": {"Type": "FDNY", "Name": "Engine 39/Ladder 16", "Address": "157 East 67th Street, Manhattan, New York"}}, {"geometry": {"type": "Point", "coordinates": [-73.9581319, 40.7714788]}, "type": "Feature", "properties": {"Type": "FDNY", "Name": "Engine 44", "Address": "221 East 75th Street, Manhattan, New York"}}, {"geometry": {"type": "Point", "coordinates": [-73.955219, 40.778705]}, "type": "Feature", "properties": {"Type": "FDNY", "Name": "Engine 22/Ladder 13/Battalion 10", "Address": "159 East 85th Street, Manhattan, New York"}}, {"geometry": {"type": "Point", "coordinates": [-73.947321, 40.79890899999999]}, "type": "Feature", "properties": {"Type": "FDNY", "Name": "Engine 58/Ladder 26", "Address": "1367 5th Avenue, Manhattan, New York"}}, {"geometry": {"type": "Point", "coordinates": [-73.947262, 40.788859]}, "type": "Feature", "properties": {"Type": "FDNY", "Name": "Engine 53/Ladder 43", "Address": "1836 3rd Avenue, Manhattan, New York"}}, {"geometry": {"type": "Point", "coordinates": [-73.940748, 40.793829]}, "type": "Feature", "properties": {"Type": "FDNY", "Name": "Engine 91", "Address": "242 East 111th Street, Manhattan, New York"}}, {"geometry": {"type": "Point", "coordinates": [-73.936505, 40.803292]}, "type": "Feature", "properties": {"Type": "FDNY", "Name": "Engine 35/Ladder 14", "Address": "2282 3rd Avenue, Manhattan, New York"}}, {"geometry": {"type": "Point", "coordinates": [-73.9671819, 40.796565]}, "type": "Feature", "properties": {"Type": "FDNY", "Name": "Engine 76/Ladder 22/Battalion 11", "Address": "145 West 100th Street, Manhattan, New York"}}, {"geometry": {"type": "Point", "coordinates": [-73.9631069, 40.804903]}, "type": "Feature", "properties": {"Type": "FDNY", "Name": "Engine 47", "Address": "502 West 113th Street, Manhattan, New York"}}, {"geometry": {"type": "Point", "coordinates": [-73.9424247, 40.8133419]}, "type": "Feature", "properties": {"Type": "FDNY", "Name": "Engine 59/Ladder 30", "Address": "111 West 133rd Street, Manhattan, New York"}}, {"geometry": {"type": "Point", "coordinates": [-73.95459199999999, 40.811949]}, "type": "Feature", "properties": {"Type": "FDNY", "Name": "Engine 37/Ladder 40", "Address": "415 West 125th Street, Manhattan, New York"}}, {"geometry": {"type": "Point", "coordinates": [-73.94181999999999, 40.820842]}, "type": "Feature", "properties": {"Type": "FDNY", "Name": "Engine 69/Ladder 28/Battalion 16", "Address": "248 West 143rd Street, Manhattan, New York"}}, {"geometry": {"type": "Point", "coordinates": [-73.9507981, 40.8218743]}, "type": "Feature", "properties": {"Type": "FDNY", "Name": "Engine 80/Ladder 23", "Address": "503 West 139th Street, Manhattan, New York"}}, {"geometry": {"type": "Point", "coordinates": [-73.9410595, 40.835826]}, "type": "Feature", "properties": {"Type": "FDNY", "Name": "Engine 84/Ladder 34", "Address": "513 West 161st Street, Manhattan, New York"}}, {"geometry": {"type": "Point", "coordinates": [-73.9370995, 40.84138069999999]}, "type": "Feature", "properties": {"Type": "FDNY", "Name": "Engine 67", "Address": "518 West 170th Street, Manhattan, New York"}}, {"geometry": {"type": "Point", "coordinates": [-73.93166269999999, 40.8487215]}, "type": "Feature", "properties": {"Type": "FDNY", "Name": "Engine 93/Ladder 45/Battalion 13", "Address": "515 West 181st Street, Manhattan, New York"}}, {"geometry": {"type": "Point", "coordinates": [-73.9251764, 40.8649326]}, "type": "Feature", "properties": {"Type": "FDNY", "Name": "Engine 95/Ladder 36", "Address": "29 Vermilyea Avenue, Manhattan, New York"}}, {"geometry": {"type": "Point", "coordinates": [-74.0079403, 40.7403051]}, "type": "Feature", "properties": {"Type": "FDNY", "Name": "Marine 1", "Address": "Little West 12th Street, Manhattan, New York"}}, {"geometry": {"type": "Point", "coordinates": [-73.922102, 40.81316]}, "type": "Feature", "properties": {"Type": "FDNY", "Name": "Engine 60/Ladder 17/Battalion 14", "Address": "341 East 143rd Street, Bronx, New York"}}, {"geometry": {"type": "Point", "coordinates": [-73.920125, 40.817244]}, "type": "Feature", "properties": {"Type": "FDNY", "Name": "Squad 41", "Address": "330 East 150th Street, Bronx, New York"}}, {"geometry": {"type": "Point", "coordinates": [-73.9156807, 40.8202629]}, "type": "Feature", "properties": {"Type": "FDNY", "Name": "Engine 71/Ladder 55/Division 6", "Address": "720 Melrose Avenue, Bronx, New York"}}, {"geometry": {"type": "Point", "coordinates": [-73.9080513, 40.82974919999999]}, "type": "Feature", "properties": {"Type": "FDNY", "Name": "Engine 50/Ladder 19", "Address": "1155 Washington Avenue, Bronx, New York"}}, {"geometry": {"type": "Point", "coordinates": [-73.9136278, 40.83468209999999]}, "type": "Feature", "properties": {"Type": "FDNY", "Name": "Engine 92/Ladder 44/Battalion 17", "Address": "1259 Morris Avenue, Bronx, New York"}}, {"geometry": {"type": "Point", "coordinates": [-73.927937, 40.8349376]}, "type": "Feature", "properties": {"Type": "FDNY", "Name": "EMS Station 17", "Address": "1080 Ogden Avenue, Bronx, New York"}}, {"geometry": {"type": "Point", "coordinates": [-73.926892, 40.836666]}, "type": "Feature", "properties": {"Type": "FDNY", "Name": "Engine 68/Ladder 49", "Address": "1160 Ogden Avenue, Bronx, New York"}}, {"geometry": {"type": "Point", "coordinates": [-73.9005868, 40.8305955]}, "type": "Feature", "properties": {"Type": "FDNY", "Name": "EMS Station 26", "Address": "1264 Boston Road, Bronx, New York"}}, {"geometry": {"type": "Point", "coordinates": [-73.9036212, 40.8152121]}, "type": "Feature", "properties": {"Type": "FDNY", "Name": "Engine 73/Ladder 42/Battalion 26", "Address": "655 Prospect Avenue, Bronx, New York"}}, {"geometry": {"type": "Point", "coordinates": [-73.88775799999999, 40.818587]}, "type": "Feature", "properties": {"Type": "FDNY", "Name": "Engine 94/Ladder 48/Battalion 3", "Address": "1226 Seneca Avenue, Bronx, New York"}}, {"geometry": {"type": "Point", "coordinates": [-73.9066417, 40.8463463]}, "type": "Feature", "properties": {"Type": "FDNY", "Name": "Engine 42", "Address": "1781 Monroe Avenue, Bronx, New York"}}, {"geometry": {"type": "Point", "coordinates": [-73.917255, 40.854613]}, "type": "Feature", "properties": {"Type": "FDNY", "Name": "Engine 43/Ladder 59", "Address": "1901 Sedgwick Avenue, Bronx, New York"}}, {"geometry": {"type": "Point", "coordinates": [-73.9014888, 40.841216]}, "type": "Feature", "properties": {"Type": "FDNY", "Name": "Rescue 3", "Address": "1655 Washington Avenue, Bronx, New York"}}, {"geometry": {"type": "Point", "coordinates": [-73.9002489, 40.8439297]}, "type": "Feature", "properties": {"Type": "FDNY", "Name": "Engine 46, Ladder 27", "Address": "460 Cross Bronx Expressway, Bronx, New York"}}, {"geometry": {"type": "Point", "coordinates": [-73.899232, 40.8463909]}, "type": "Feature", "properties": {"Type": "FDNY", "Name": "Bronx Borough Command, District Office 6 & 7", "Address": "451 East 176th Street, Bronx, New York"}}, {"geometry": {"type": "Point", "coordinates": [-73.8951926, 40.82854589999999]}, "type": "Feature", "properties": {"Type": "FDNY", "Name": "Engine 82/Ladder 31", "Address": "1213 Intervale Avenue, Bronx, New York"}}, {"geometry": {"type": "Point", "coordinates": [-73.8938922, 40.8592247]}, "type": "Feature", "properties": {"Type": "FDNY", "Name": "Engine 48/Ladder 56/Division 7", "Address": "2417 Webster Avenue, Bronx, New York"}}, {"geometry": {"type": "Point", "coordinates": [-73.8877634, 40.8519069]}, "type": "Feature", "properties": {"Type": "FDNY", "Name": "Engine 88/Ladder 38", "Address": "2225 Belmont Avenue, Bronx, New York"}}, {"geometry": {"type": "Point", "coordinates": [-73.88341299999999, 40.84199599999999]}, "type": "Feature", "properties": {"Type": "FDNY", "Name": "Engine 45/Ladder 58/Battalion 18", "Address": "925 East Tremont Avenue, Bronx, New York"}}, {"geometry": {"type": "Point", "coordinates": [-73.904416, 40.85621]}, "type": "Feature", "properties": {"Type": "FDNY", "Name": "Engine 75/Ladder 33/Battalion 19", "Address": "2175 Walton Avenue, Bronx, New York"}}, {"geometry": {"type": "Point", "coordinates": [-73.9036321, 40.8768983]}, "type": "Feature", "properties": {"Type": "FDNY", "Name": "Engine 81/Ladder 46", "Address": "3025 Bailey Avenue, Bronx, New York"}}, {"geometry": {"type": "Point", "coordinates": [-73.8867985, 40.8704622]}, "type": "Feature", "properties": {"Type": "FDNY", "Name": "Engine 79/Ladder 37/Battalion 27", "Address": "2928 Briggs Avenue, Bronx, New York"}}, {"geometry": {"type": "Point", "coordinates": [-73.86934099999999, 40.82304]}, "type": "Feature", "properties": {"Type": "FDNY", "Name": "Engine 96/Ladder 54", "Address": "1689 Story Avenue, Bronx, New York"}}, {"geometry": {"type": "Point", "coordinates": [-73.85095179999999, 40.8324222]}, "type": "Feature", "properties": {"Type": "FDNY", "Name": "Engine 64/Ladder 47/District Office 7", "Address": "1214 Castle Hill Avenue, Bronx, New York"}}, {"geometry": {"type": "Point", "coordinates": [-73.86656119999999, 40.8463845]}, "type": "Feature", "properties": {"Type": "FDNY", "Name": "Engine 90/Ladder 41", "Address": "1843 White Plains Road, Bronx, New York"}}, {"geometry": {"type": "Point", "coordinates": [-73.8464422, 40.8450368]}, "type": "Feature", "properties": {"Type": "FDNY", "Name": "Squad 61/Battalion 20", "Address": "1518 Williamsbridge Road, Bronx, New York"}}, {"geometry": {"type": "Point", "coordinates": [-73.84415299999999, 40.859335]}, "type": "Feature", "properties": {"Type": "FDNY", "Name": "Engine 97", "Address": "1454 Astor Avenue, Bronx, New York"}}, {"geometry": {"type": "Point", "coordinates": [-73.867402, 40.876299]}, "type": "Feature", "properties": {"Type": "FDNY", "Name": "Engine 62/Ladder 32", "Address": "3431 White Plains Road, Bronx, New York"}}, {"geometry": {"type": "Point", "coordinates": [-73.846486, 40.877975]}, "type": "Feature", "properties": {"Type": "FDNY", "Name": "Engine 38/Ladder 51", "Address": "3446 Eastchester Road, Bronx, New York"}}, {"geometry": {"type": "Point", "coordinates": [-73.85537579999999, 40.8927705]}, "type": "Feature", "properties": {"Type": "FDNY", "Name": "Engine 63/Ladder 39/Battalion 15", "Address": "755 East 233rd Street, Bronx, New York"}}, {"geometry": {"type": "Point", "coordinates": [-73.8310667, 40.8697601]}, "type": "Feature", "properties": {"Type": "FDNY", "Name": "Engine 66/Ladder 61", "Address": "21 Asch Loop West, Bronx, New York"}}, {"geometry": {"type": "Point", "coordinates": [-73.82726459999999, 40.8333912]}, "type": "Feature", "properties": {"Type": "FDNY", "Name": "Engine 89/Ladder 50", "Address": "2924 Bruckner Boulevard, Bronx, New York"}}, {"geometry": {"type": "Point", "coordinates": [-73.81826749999999, 40.8213672]}, "type": "Feature", "properties": {"Type": "FDNY", "Name": "Engine 72", "Address": "3929 East Tremont Avenue, Bronx, New York"}}, {"geometry": {"type": "Point", "coordinates": [-73.784666, 40.845563]}, "type": "Feature", "properties": {"Type": "FDNY", "Name": "Engine 70/Ladder 53", "Address": "169 Schofield Street, Bronx, New York"}}, {"geometry": {"type": "Point", "coordinates": [-73.9828457, 40.6954934]}, "type": "Feature", "properties": {"Type": "FDNY", "Name": "Engine 207/Ladder 110/Battalion 31/Division 11/Brooklyn Borough Command", "Address": "172 Tillary Street, Brooklyn, New York"}}, {"geometry": {"type": "Point", "coordinates": [-73.98271199999999, 40.687122]}, "type": "Feature", "properties": {"Type": "FDNY", "Name": "Engine 226", "Address": "409 State Street, Brooklyn, New York"}}, {"geometry": {"type": "Point", "coordinates": [-73.9922746, 40.700056]}, "type": "Feature", "properties": {"Type": "FDNY", "Name": "Engine 205/Ladder 118", "Address": "74 Middagh Street, Brooklyn, New York"}}, {"geometry": {"type": "Point", "coordinates": [-73.997134, 40.6931066]}, "type": "Feature", "properties": {"Type": "FDNY", "Name": "Engine 224", "Address": "274 Hicks Street, Brooklyn, New York"}}, {"geometry": {"type": "Point", "coordinates": [-73.9996336, 40.6721384]}, "type": "Feature", "properties": {"Type": "FDNY", "Name": "Engine 279/Ladder 131", "Address": "252 Lorraine Street, Brooklyn, New York"}}, {"geometry": {"type": "Point", "coordinates": [-74.0063674, 40.68032789999999]}, "type": "Feature", "properties": {"Type": "FDNY", "Name": "Engine 202/Ladder 101/Battalion 32", "Address": "31 Richards Street, Brooklyn, New York"}}, {"geometry": {"type": "Point", "coordinates": [-74.00526289999999, 40.6518367]}, "type": "Feature", "properties": {"Type": "FDNY", "Name": "Engine 228", "Address": "436 39th Street, Brooklyn, New York"}}, {"geometry": {"type": "Point", "coordinates": [-74.01327599999999, 40.6454015]}, "type": "Feature", "properties": {"Type": "FDNY", "Name": "Engine 201/Ladder 114/Battalion 40", "Address": "5113 4th Avenue, Brooklyn, New York"}}, {"geometry": {"type": "Point", "coordinates": [-73.9766066, 40.6746755]}, "type": "Feature", "properties": {"Type": "FDNY", "Name": "Squad 1", "Address": "788 Union Street, Brooklyn, New York"}}, {"geometry": {"type": "Point", "coordinates": [-73.987088, 40.671728]}, "type": "Feature", "properties": {"Type": "FDNY", "Name": "Engine 239", "Address": "395 4th Avenue, Brooklyn, New York"}}, {"geometry": {"type": "Point", "coordinates": [-73.98155799999999, 40.66486400000001]}, "type": "Feature", "properties": {"Type": "FDNY", "Name": "Engine 220/Ladder 122", "Address": "530 11th Street, Brooklyn, New York"}}, {"geometry": {"type": "Point", "coordinates": [-73.97375, 40.6812809]}, "type": "Feature", "properties": {"Type": "FDNY", "Name": "Ladder 105", "Address": "494 Dean Street, Brooklyn, New York"}}, {"geometry": {"type": "Point", "coordinates": [-73.9617098, 40.6734445]}, "type": "Feature", "properties": {"Type": "FDNY", "Name": "Engine 280/Ladder 132", "Address": "489 Saint Johns Place, Brooklyn, New York"}}, {"geometry": {"type": "Point", "coordinates": [-73.9350704, 40.6750659]}, "type": "Feature", "properties": {"Type": "FDNY", "Name": "Rescue 2", "Address": "1472 Bergen Street, Brooklyn, New York"}}, {"geometry": {"type": "Point", "coordinates": [-73.9334178, 40.6705624]}, "type": "Feature", "properties": {"Type": "FDNY", "Name": "Engine 234/Ladder 123/Battalion 38", "Address": "1352 Saint Johns Place, Brooklyn, New York"}}, {"geometry": {"type": "Point", "coordinates": [-73.921712, 40.674779]}, "type": "Feature", "properties": {"Type": "FDNY", "Name": "Engine 227", "Address": "423 Ralph Avenue, Brooklyn, New York"}}, {"geometry": {"type": "Point", "coordinates": [-73.91149899999999, 40.6826552]}, "type": "Feature", "properties": {"Type": "FDNY", "Name": "Engine 233/Ladder 176", "Address": "25 Rockaway Avenue, Brooklyn, New York"}}, {"geometry": {"type": "Point", "coordinates": [-73.937972, 40.692658]}, "type": "Feature", "properties": {"Type": "FDNY", "Name": "Engine 217", "Address": "940 Dekalb Avenue, Brooklyn, New York"}}, {"geometry": {"type": "Point", "coordinates": [-73.9241594, 40.6894151]}, "type": "Feature", "properties": {"Type": "FDNY", "Name": "Engine 222/Battalion 37", "Address": "32 Ralph Avenue, Brooklyn, New York"}}, {"geometry": {"type": "Point", "coordinates": [-73.935728, 40.684392]}, "type": "Feature", "properties": {"Type": "FDNY", "Name": "Engine 214/Ladder 111", "Address": "495 Hancock Street, Brooklyn, New York"}}, {"geometry": {"type": "Point", "coordinates": [-73.947537, 40.6980549]}, "type": "Feature", "properties": {"Type": "FDNY", "Name": "Engine 230", "Address": "701 Park Avenue, Brooklyn, New York"}}, {"geometry": {"type": "Point", "coordinates": [-73.951099, 40.685156]}, "type": "Feature", "properties": {"Type": "FDNY", "Name": "Engine 235/Battalion 57", "Address": "206 Monroe Street, Brooklyn, New York"}}, {"geometry": {"type": "Point", "coordinates": [-73.95665799999999, 40.695572]}, "type": "Feature", "properties": {"Type": "FDNY", "Name": "Ladder 102", "Address": "850 Bedford Avenue, Brooklyn, New York"}}, {"geometry": {"type": "Point", "coordinates": [-73.9792196, 40.6935178]}, "type": "Feature", "properties": {"Type": "FDNY", "Name": "Marine 6", "Address": "Building 292 Brooklyn Navy Yard, Brooklyn, New York"}}, {"geometry": {"type": "Point", "coordinates": [-73.97307599999999, 40.692788]}, "type": "Feature", "properties": {"Type": "FDNY", "Name": "Engine 210", "Address": "160 Carlton Avenue, Brooklyn, New York"}}, {"geometry": {"type": "Point", "coordinates": [-73.96233579999999, 40.7014106]}, "type": "Feature", "properties": {"Type": "FDNY", "Name": "Engine 211/Ladder 119", "Address": "26 Hooper Street, Brooklyn, New York"}}, {"geometry": {"type": "Point", "coordinates": [-73.9612204, 40.71311559999999]}, "type": "Feature", "properties": {"Type": "FDNY", "Name": "Engine 221/Ladder 104", "Address": "161 South 2nd Street, Brooklyn, New York"}}, {"geometry": {"type": "Point", "coordinates": [-73.9504792, 40.7060285]}, "type": "Feature", "properties": {"Type": "FDNY", "Name": "Engine 216/Ladder 108/Battalion 35", "Address": "187 Union Avenue, Brooklyn, New York"}}, {"geometry": {"type": "Point", "coordinates": [-73.9512091, 40.7307502]}, "type": "Feature", "properties": {"Type": "FDNY", "Name": "Engine 238/Ladder 106", "Address": "205 Greenpoint Avenue, Brooklyn, New York"}}, {"geometry": {"type": "Point", "coordinates": [-73.9490497, 40.7185512]}, "type": "Feature", "properties": {"Type": "FDNY", "Name": "Engine 229/Ladder 146", "Address": "75 Richardson Street, Brooklyn, New York"}}, {"geometry": {"type": "Point", "coordinates": [-73.9282195, 40.715326]}, "type": "Feature", "properties": {"Type": "FDNY", "Name": "Engine 206", "Address": "1201 Grand Street, Brooklyn, New York"}}, {"geometry": {"type": "Point", "coordinates": [-73.931896, 40.705258]}, "type": "Feature", "properties": {"Type": "FDNY", "Name": "Engine 237", "Address": "43 Morgan Avenue, Brooklyn, New York"}}, {"geometry": {"type": "Point", "coordinates": [-73.92657299999999, 40.698291]}, "type": "Feature", "properties": {"Type": "FDNY", "Name": "Engine 218", "Address": "650 Hart Street, Brooklyn, New York"}}, {"geometry": {"type": "Point", "coordinates": [-73.915983, 40.703612]}, "type": "Feature", "properties": {"Type": "FDNY", "Name": "Engine 271/Ladder 124/Battalion 28", "Address": "392 Himrod Street, Brooklyn, New York"}}, {"geometry": {"type": "Point", "coordinates": [-73.9143958, 40.6965408]}, "type": "Feature", "properties": {"Type": "FDNY", "Name": "Engine 277/Ladder 112", "Address": "582 Knickerbocker Avenue, Brooklyn, New York"}}, {"geometry": {"type": "Point", "coordinates": [-73.908174, 40.688674]}, "type": "Feature", "properties": {"Type": "FDNY", "Name": "Squad 252", "Address": "617 Central Avenue, Brooklyn, New York"}}, {"geometry": {"type": "Point", "coordinates": [-73.9079533, 40.67055879999999]}, "type": "Feature", "properties": {"Type": "FDNY", "Name": "Engine 231/Ladder 120/Battalion 44", "Address": "107 Watkins Street, Brooklyn, New York"}}, {"geometry": {"type": "Point", "coordinates": [-73.91808680000001, 40.6615167]}, "type": "Feature", "properties": {"Type": "FDNY", "Name": "Engine 283/Division 15", "Address": "885 Howard Avenue, Brooklyn, New York"}}, {"geometry": {"type": "Point", "coordinates": [-73.8926117, 40.6754486]}, "type": "Feature", "properties": {"Type": "FDNY", "Name": "Engine 332/Ladder 175", "Address": "165 Bradford Street, Brooklyn, New York"}}, {"geometry": {"type": "Point", "coordinates": [-73.8954416, 40.6651299]}, "type": "Feature", "properties": {"Type": "FDNY", "Name": "Engine 290/Ladder 103", "Address": "480 Sheffield Avenue, Brooklyn, New York"}}, {"geometry": {"type": "Point", "coordinates": [-73.8727751, 40.67768299999999]}, "type": "Feature", "properties": {"Type": "FDNY", "Name": "Engine 236", "Address": "998 Liberty Avenue, Brooklyn, New York"}}, {"geometry": {"type": "Point", "coordinates": [-73.86531529999999, 40.6693938]}, "type": "Feature", "properties": {"Type": "FDNY", "Name": "Engine 225/Ladder 107/Battalion 39", "Address": "799 Lincoln Avenue, Brooklyn, New York"}}, {"geometry": {"type": "Point", "coordinates": [-73.928905, 40.65040399999999]}, "type": "Feature", "properties": {"Type": "FDNY", "Name": "Engine 310/Ladder 174/Battalion 58", "Address": "5105 Snyder Avenue, Brooklyn, New York"}}, {"geometry": {"type": "Point", "coordinates": [-73.953206, 40.660244]}, "type": "Feature", "properties": {"Type": "FDNY", "Name": "Engine 249/Ladder 113", "Address": "491 Rogers Avenue, Brooklyn, New York"}}, {"geometry": {"type": "Point", "coordinates": [-73.9498789, 40.648889]}, "type": "Feature", "properties": {"Type": "FDNY", "Name": "Engine 248", "Address": "2900 Snyder Avenue, Brooklyn, New York"}}, {"geometry": {"type": "Point", "coordinates": [-73.96661, 40.639955]}, "type": "Feature", "properties": {"Type": "FDNY", "Name": "Engine 281/Ladder 147", "Address": "1210 Cortelyou Road, Brooklyn, New York"}}, {"geometry": {"type": "Point", "coordinates": [-73.9506229, 40.636435]}, "type": "Feature", "properties": {"Type": "FDNY", "Name": "Engine 255/Ladder 157", "Address": "1367 Rogers Avenue, Brooklyn, New York"}}, {"geometry": {"type": "Point", "coordinates": [-73.97561209999999, 40.6512173]}, "type": "Feature", "properties": {"Type": "FDNY", "Name": "Engine 240/Battalion 48", "Address": "1307 Prospect Avenue, Brooklyn, New York"}}, {"geometry": {"type": "Point", "coordinates": [-73.99077, 40.640187]}, "type": "Feature", "properties": {"Type": "FDNY", "Name": "Engine 282/Ladder 148", "Address": "4210 12th Avenue, Brooklyn, New York"}}, {"geometry": {"type": "Point", "coordinates": [-73.99763879999999, 40.6281083]}, "type": "Feature", "properties": {"Type": "FDNY", "Name": "Engine 247", "Address": "1336 60th Street, Brooklyn, New York"}}, {"geometry": {"type": "Point", "coordinates": [-74.0250066, 40.63808]}, "type": "Feature", "properties": {"Type": "FDNY", "Name": "Engine 241/Ladder 109", "Address": "6630 3rd Avenue, Brooklyn, New York"}}, {"geometry": {"type": "Point", "coordinates": [-74.0294153, 40.617371]}, "type": "Feature", "properties": {"Type": "FDNY", "Name": "Engine 242", "Address": "9219 5th Avenue, Brooklyn, New York"}}, {"geometry": {"type": "Point", "coordinates": [-74.012524, 40.619926]}, "type": "Feature", "properties": {"Type": "FDNY", "Name": "Engine 284/Ladder 149", "Address": "1157 79th Street, Brooklyn, New York"}}, {"geometry": {"type": "Point", "coordinates": [-74.0035139, 40.6060689]}, "type": "Feature", "properties": {"Type": "FDNY", "Name": "Engine 243/Ladder 168/Battalion 42", "Address": "8653 18th Avenue, Brooklyn, New York"}}, {"geometry": {"type": "Point", "coordinates": [-73.9757242, 40.6278928]}, "type": "Feature", "properties": {"Type": "FDNY", "Name": "Engine 250", "Address": "126 Foster Avenue, Brooklyn, New York"}}, {"geometry": {"type": "Point", "coordinates": [-73.97914709999999, 40.6121364]}, "type": "Feature", "properties": {"Type": "FDNY", "Name": "Engine 330/Ladder 172", "Address": "2312 65th Street, Brooklyn, New York"}}, {"geometry": {"type": "Point", "coordinates": [-73.9591143, 40.6093904]}, "type": "Feature", "properties": {"Type": "FDNY", "Name": "Engine 276/Ladder 156/Battalion 33", "Address": "1635 East 14th Street, Brooklyn, New York"}}, {"geometry": {"type": "Point", "coordinates": [-73.9885169, 40.5989492]}, "type": "Feature", "properties": {"Type": "FDNY", "Name": "Engine 253", "Address": "2429 86th Street, Brooklyn, New York"}}, {"geometry": {"type": "Point", "coordinates": [-73.99297399999999, 40.5777659]}, "type": "Feature", "properties": {"Type": "FDNY", "Name": "Engine 318/Ladder 166", "Address": "2510 Neptune Avenue, Brooklyn, New York"}}, {"geometry": {"type": "Point", "coordinates": [-73.96194899999999, 40.5984679]}, "type": "Feature", "properties": {"Type": "FDNY", "Name": "Engine 254/Ladder 153", "Address": "901 Avenue U, Brooklyn, New York"}}, {"geometry": {"type": "Point", "coordinates": [-73.97646759999999, 40.576185]}, "type": "Feature", "properties": {"Type": "FDNY", "Name": "Engine 245/Ladder 161/Battalion 43", "Address": "2929 West 8th Street, Brooklyn, New York"}}, {"geometry": {"type": "Point", "coordinates": [-73.90355439999999, 40.646569]}, "type": "Feature", "properties": {"Type": "FDNY", "Name": "Engine 257/Ladder 170", "Address": "1361 Rockaway Parkway, Brooklyn, New York"}}, {"geometry": {"type": "Point", "coordinates": [-73.9157826, 40.6199898]}, "type": "Feature", "properties": {"Type": "FDNY", "Name": "Engine 323", "Address": "6405 Avenue N, Brooklyn, New York"}}, {"geometry": {"type": "Point", "coordinates": [-73.9281644, 40.6152753]}, "type": "Feature", "properties": {"Type": "FDNY", "Name": "Engine 309/Ladder 159", "Address": "1851 East 48th Street, Brooklyn, New York"}}, {"geometry": {"type": "Point", "coordinates": [-73.9593809, 40.584255]}, "type": "Feature", "properties": {"Type": "FDNY", "Name": "Engine 246/Ladder 169", "Address": "2732 East 11th Street, Brooklyn, New York"}}, {"geometry": {"type": "Point", "coordinates": [-73.93515200000002, 40.6022419]}, "type": "Feature", "properties": {"Type": "FDNY", "Name": "Engine 321", "Address": "2165 Gerritsen Avenue, Brooklyn, New York"}}, {"geometry": {"type": "Point", "coordinates": [-73.8545206, 40.7469882]}, "type": "Feature", "properties": {"Type": "FDNY", "Name": "Engine 258/Ladder 115", "Address": "10 47th Avenue, Queens, New York"}}, {"geometry": {"type": "Point", "coordinates": [-73.913612, 40.7447772]}, "type": "Feature", "properties": {"Type": "FDNY", "Name": "Engine 325/Ladder 163", "Address": "41 51st Street, Queens, New York"}}, {"geometry": {"type": "Point", "coordinates": [-73.935234, 40.735604]}, "type": "Feature", "properties": {"Type": "FDNY", "Name": "Engine 259/Ladder 128/Battalion 45", "Address": "33 Greenpoint Avenue, Queens, New York"}}, {"geometry": {"type": "Point", "coordinates": [-73.82710399999999, 40.76273500000001]}, "type": "Feature", "properties": {"Type": "FDNY", "Name": "Engine 260", "Address": "11 37th Avenue, Queens, New York"}}, {"geometry": {"type": "Point", "coordinates": [-73.933263, 40.75539699999999]}, "type": "Feature", "properties": {"Type": "FDNY", "Name": "Engine 261/Ladder 116", "Address": "3720 29th Street, Queens, New York"}}, {"geometry": {"type": "Point", "coordinates": [-73.910242, 40.7792108]}, "type": "Feature", "properties": {"Type": "FDNY", "Name": "Engine 262", "Address": "30 21st Street, Queens, New York"}}, {"geometry": {"type": "Point", "coordinates": [-73.8749259, 40.76321220000001]}, "type": "Feature", "properties": {"Type": "FDNY", "Name": "Engine 263/Ladder 117/Battalion 49", "Address": "42 Astoria Boulevard, Queens, New York"}}, {"geometry": {"type": "Point", "coordinates": [-73.93395699999999, 40.736854]}, "type": "Feature", "properties": {"Type": "FDNY", "Name": "Engine 312", "Address": "22 35th Street, Queens, New York"}}, {"geometry": {"type": "Point", "coordinates": [-73.8520228, 40.725843]}, "type": "Feature", "properties": {"Type": "FDNY", "Name": "Engine 307/Ladder 154", "Address": "81 North Boulevard, Queens, New York"}}, {"geometry": {"type": "Point", "coordinates": [-73.9282593, 40.7460703]}, "type": "Feature", "properties": {"Type": "FDNY", "Name": "Engine 289/Ladder 138", "Address": "97 43rd Avenue, Queens, New York"}}, {"geometry": {"type": "Point", "coordinates": [-73.8684808, 40.7620182]}, "type": "Feature", "properties": {"Type": "FDNY", "Name": "Engine 316", "Address": "27 Kearney Street, Queens, New York"}}, {"geometry": {"type": "Point", "coordinates": [-73.7668989, 40.746499]}, "type": "Feature", "properties": {"Type": "FDNY", "Name": "Engine 324/Division 14", "Address": "108 Horace Harding Blvd., Queens, New York"}}, {"geometry": {"type": "Point", "coordinates": [-73.8520228, 40.725843]}, "type": "Feature", "properties": {"Type": "FDNY", "Name": "Eng 292/Rescue 4", "Address": "64 Queens Boulevard, Queens, New York"}}, {"geometry": {"type": "Point", "coordinates": [-73.8965186, 40.726071]}, "type": "Feature", "properties": {"Type": "FDNY", "Name": "Squad 288/Hazmat 1", "Address": "56 68th Street, Queens, New York"}}, {"geometry": {"type": "Point", "coordinates": [-73.881592, 40.7352073]}, "type": "Feature", "properties": {"Type": "FDNY", "Name": "Engine 287/Ladder 136/Battalion 46", "Address": "86 Grand Avenue, Queens, New York"}}, {"geometry": {"type": "Point", "coordinates": [-73.90674299999999, 40.713149]}, "type": "Feature", "properties": {"Type": "FDNY", "Name": "Engine 291/Ladder 140", "Address": "56 Metropolitan Avenue, Queens, New York"}}, {"geometry": {"type": "Point", "coordinates": [-73.837757, 40.7192417]}, "type": "Feature", "properties": {"Type": "FDNY", "Name": "Engine 305/Ladder 151", "Address": "111 Queens Boulevard, Queens, New York"}}, {"geometry": {"type": "Point", "coordinates": [-73.8913136, 40.7010865]}, "type": "Feature", "properties": {"Type": "FDNY", "Name": "Engine 286/Ladder 135", "Address": "66 Myrtle Avenue, Queens, New York"}}, {"geometry": {"type": "Point", "coordinates": [-73.8472373, 40.7282662]}, "type": "Feature", "properties": {"Type": "FDNY", "Name": "Engine 319", "Address": "78 67th Road, Queens, New York"}}, {"geometry": {"type": "Point", "coordinates": [-73.84804299999999, 40.785008]}, "type": "Feature", "properties": {"Type": "FDNY", "Name": "Engine 297/Ladder 130", "Address": "119 14th Road, Queens, New York"}}, {"geometry": {"type": "Point", "coordinates": [-73.78978099999999, 40.671123]}, "type": "Feature", "properties": {"Type": "FDNY", "Name": "Engine 295/Ladder 144", "Address": "12 149th Street, Queens, New York"}}, {"geometry": {"type": "Point", "coordinates": [-73.8262996, 40.7599499]}, "type": "Feature", "properties": {"Type": "FDNY", "Name": "Engine 273/Ladder 129", "Address": "40 Union Street, Queens, New York"}}, {"geometry": {"type": "Point", "coordinates": [-73.81252429999999, 40.76290729999999]}, "type": "Feature", "properties": {"Type": "FDNY", "Name": "Engine 274/Battalion 52", "Address": "41 Murray Street, Queens, New York"}}, {"geometry": {"type": "Point", "coordinates": [-73.73436559999999, 40.6641468]}, "type": "Feature", "properties": {"Type": "FDNY", "Name": "Engine 320/Ladder 167", "Address": "36 Francis Lewis Boulevard, Queens, New York"}}, {"geometry": {"type": "Point", "coordinates": [-73.76974349999999, 40.7639186]}, "type": "Feature", "properties": {"Type": "FDNY", "Name": "Engine 306/Battalion 53", "Address": "40 214th Place, Queens, New York"}}, {"geometry": {"type": "Point", "coordinates": [-73.804065, 40.7213585]}, "type": "Feature", "properties": {"Type": "FDNY", "Name": "Engine 315/Ladder 125", "Address": "159 Union Turnpike, Queens, New York"}}, {"geometry": {"type": "Point", "coordinates": [-73.792619, 40.738102]}, "type": "Feature", "properties": {"Type": "FDNY", "Name": "Engine 299/Ladder 152", "Address": "61 Utopia Parkway, Queens, New York"}}, {"geometry": {"type": "Point", "coordinates": [-73.75485890000002, 40.7454635]}, "type": "Feature", "properties": {"Type": "FDNY", "Name": "Engine 326/Ladder 160", "Address": "64 Springfield Boulevard, Queens, New York"}}, {"geometry": {"type": "Point", "coordinates": [-73.7421799, 40.7654992]}, "type": "Feature", "properties": {"Type": "FDNY", "Name": "Engine 313/Ladder 164", "Address": "44 244th Street, Queens, New York"}}, {"geometry": {"type": "Point", "coordinates": [-73.8630718, 40.7035719]}, "type": "Feature", "properties": {"Type": "FDNY", "Name": "Engine 251", "Address": "254 Union Turnpike, Queens, New York"}}, {"geometry": {"type": "Point", "coordinates": [-73.8813749, 40.7598638]}, "type": "Feature", "properties": {"Type": "FDNY", "Name": "Engine 293", "Address": "89 87th Street, Queens, New York"}}, {"geometry": {"type": "Point", "coordinates": [-73.86319809999999, 40.7398416]}, "type": "Feature", "properties": {"Type": "FDNY", "Name": "Engine 285/Ladder 142", "Address": "103 98th Street, Queens, New York"}}, {"geometry": {"type": "Point", "coordinates": [-73.79986, 40.7037291]}, "type": "Feature", "properties": {"Type": "FDNY", "Name": "Ladder 143", "Address": "101 Jamaica Avenue, Queens, New York"}}, {"geometry": {"type": "Point", "coordinates": [-73.8471759, 40.7758045]}, "type": "Feature", "properties": {"Type": "FDNY", "Name": "Squad 270/Division 13", "Address": "91 121st Street, Queens, New York"}}, {"geometry": {"type": "Point", "coordinates": [-73.8307536, 40.7083728]}, "type": "Feature", "properties": {"Type": "FDNY", "Name": "Engine 308/Battalion 51", "Address": "107 Lefferts Boulevard, Queens, New York"}}, {"geometry": {"type": "Point", "coordinates": [-73.7991318, 40.7088614]}, "type": "Feature", "properties": {"Type": "FDNY", "Name": "Engine 298/Ladder 127/Battalion 50", "Address": "153 Hillside Avenue, Queens, New York"}}, {"geometry": {"type": "Point", "coordinates": [-73.8071106, 40.6940192]}, "type": "Feature", "properties": {"Type": "FDNY", "Name": "Engine 303/Ladder 126", "Address": "104 Princeton Street, Queens, New York"}}, {"geometry": {"type": "Point", "coordinates": [-73.7600451, 40.67906809999999]}, "type": "Feature", "properties": {"Type": "FDNY", "Name": "Engine 275", "Address": "111 Merrick Boulevard, Queens, New York"}}, {"geometry": {"type": "Point", "coordinates": [-73.762433, 40.71434199999999]}, "type": "Feature", "properties": {"Type": "FDNY", "Name": "Engine 301/Ladder 150", "Address": "91 197th Street, Queens, New York"}}, {"geometry": {"type": "Point", "coordinates": [-73.80800839999999, 40.6964474]}, "type": "Feature", "properties": {"Type": "FDNY", "Name": "Engine 304/Ladder 162", "Address": "218 97th Avenue, Queens, New York"}}, {"geometry": {"type": "Point", "coordinates": [-73.80360979999999, 40.6745643]}, "type": "Feature", "properties": {"Type": "FDNY", "Name": "Engine 302/Ladder 155", "Address": "143 Rockaway Boulevard, Queens, New York"}}, {"geometry": {"type": "Point", "coordinates": [-73.755909, 40.69253]}, "type": "Feature", "properties": {"Type": "FDNY", "Name": "Engine 317/Ladder 165/Battalion 54", "Address": "117 196th Street, Queens, New York"}}, {"geometry": {"type": "Point", "coordinates": [-73.74350729999999, 40.69671719999999]}, "type": "Feature", "properties": {"Type": "FDNY", "Name": "Engine 311/Ladder 158", "Address": "145 Springfield Boulevard, Queens, New York"}}, {"geometry": {"type": "Point", "coordinates": [-73.7405267, 40.6640046]}, "type": "Feature", "properties": {"Type": "FDNY", "Name": "Engine 314", "Address": "142 Brookville Boulevard, Queens, New York"}}, {"geometry": {"type": "Point", "coordinates": [-73.81873999999999, 40.6112285]}, "type": "Feature", "properties": {"Type": "FDNY", "Name": "Engine 331/Ladder 173", "Address": "158 Cross Bay Boulevard, Queens, New York"}}, {"geometry": {"type": "Point", "coordinates": [-73.75231, 40.6052417]}, "type": "Feature", "properties": {"Type": "FDNY", "Name": "Engine 264/Engine 328/Ladder 134", "Address": "16 Central Avenue, Queens, New York"}}, {"geometry": {"type": "Point", "coordinates": [-73.778987, 40.593037]}, "type": "Feature", "properties": {"Type": "FDNY", "Name": "Engine 265/Ladder 121/Battalion 47 EMS Station 47", "Address": "48 Rockaway Beach Boulevard, Queens, New York"}}, {"geometry": {"type": "Point", "coordinates": [-73.8166349, 40.5859761]}, "type": "Feature", "properties": {"Type": "FDNY", "Name": "Engine 266/Battalion 47", "Address": "92 Rockaway Beach Boulevard, Queens, New York"}}, {"geometry": {"type": "Point", "coordinates": [-73.83816589999999, 40.5807302]}, "type": "Feature", "properties": {"Type": "FDNY", "Name": "Engine 268/Ladder 137", "Address": "257 Beach 116th Street, Queens, New York"}}, {"geometry": {"type": "Point", "coordinates": [-73.7973245, 40.7607873]}, "type": "Feature", "properties": {"Type": "FDNY", "Name": "Engine 329", "Address": "402 Beach 169th Street, Queens, New York"}}, {"geometry": {"type": "Point", "coordinates": [-74.0731958, 40.6429789]}, "type": "Feature", "properties": {"Type": "FDNY", "Name": "Marine 9", "Address": "Saint George Ferry Terminal, Staten Island, New York"}}, {"geometry": {"type": "Point", "coordinates": [-74.08774199999999, 40.63755099999999]}, "type": "Feature", "properties": {"Type": "FDNY", "Name": "Engine 155/Ladder 78", "Address": "14 Brighton Avenue, Staten Island, New York"}}, {"geometry": {"type": "Point", "coordinates": [-74.122016, 40.6343699]}, "type": "Feature", "properties": {"Type": "FDNY", "Name": "Ladder 79/Battalion 22", "Address": "1189 Castleton Avenue, Staten Island, New York"}}, {"geometry": {"type": "Point", "coordinates": [-74.116817, 40.630978]}, "type": "Feature", "properties": {"Type": "FDNY", "Name": "Engine 156", "Address": "412 Broadway, Staten Island, New York"}}, {"geometry": {"type": "Point", "coordinates": [-74.1308777, 40.615223]}, "type": "Feature", "properties": {"Type": "FDNY", "Name": "Engine 163/Ladder 83", "Address": "875 Jewett Avenue, Staten Island, New York"}}, {"geometry": {"type": "Point", "coordinates": [-74.077653, 40.624951]}, "type": "Feature", "properties": {"Type": "FDNY", "Name": "Engine 153/Ladder 77", "Address": "74 Broad Street, Staten Island, New York"}}, {"geometry": {"type": "Point", "coordinates": [-74.1237948, 40.5758945]}, "type": "Feature", "properties": {"Type": "FDNY", "Name": "Engine 165/Ladder 85", "Address": "3067 Richmond Road, Staten Island, New York"}}, {"geometry": {"type": "Point", "coordinates": [-74.13537, 40.63627]}, "type": "Feature", "properties": {"Type": "FDNY", "Name": "Engine 157/Ladder 80", "Address": "1573 Castleton Avenue, Staten Island, New York"}}, {"geometry": {"type": "Point", "coordinates": [-74.15991199999999, 40.635244]}, "type": "Feature", "properties": {"Type": "FDNY", "Name": "Engine 158", "Address": "65 Harbor Road, Staten Island, New York"}}, {"geometry": {"type": "Point", "coordinates": [-74.15821199999999, 40.614282]}, "type": "Feature", "properties": {"Type": "FDNY", "Name": "Engine 166/Ladder 86", "Address": "1400 Richmond Avenue, Staten Island, New York"}}, {"geometry": {"type": "Point", "coordinates": [-74.1804865, 40.59786450000001]}, "type": "Feature", "properties": {"Type": "FDNY", "Name": "Engine 154/District Office 8/ Staten Island Borough Command", "Address": "3730 Victory Boulevard, Staten Island, New York"}}, {"geometry": {"type": "Point", "coordinates": [-74.07041389999999, 40.6116545]}, "type": "Feature", "properties": {"Type": "FDNY", "Name": "Engine 152/Battalion 21", "Address": "256 Hylan Boulevard, Staten Island, New York"}}, {"geometry": {"type": "Point", "coordinates": [-74.1502007, 40.5795317]}, "type": "Feature", "properties": {"Type": "FDNY", "Name": "Engine 161/Ladder 81", "Address": "278 Mc Clean Avenue, Staten Island, New York"}}, {"geometry": {"type": "Point", "coordinates": [-74.08921699999999, 40.607298]}, "type": "Feature", "properties": {"Type": "FDNY", "Name": "Engine 160/Rescue 5/Division 8", "Address": "1850 Clove Road, Staten Island, New York"}}, {"geometry": {"type": "Point", "coordinates": [-74.1006333, 40.59063829999999]}, "type": "Feature", "properties": {"Type": "FDNY", "Name": "Engine 159", "Address": "1592 Richmond Road, Staten Island, New York"}}, {"geometry": {"type": "Point", "coordinates": [-74.147387, 40.543113]}, "type": "Feature", "properties": {"Type": "FDNY", "Name": "Engine 162/Ladder 82/Battalion 23", "Address": "256 Nelson Avenue, Staten Island, New York"}}, {"geometry": {"type": "Point", "coordinates": [-74.17545799999999, 40.554174]}, "type": "Feature", "properties": {"Type": "FDNY", "Name": "Engine 167/Ladder 87", "Address": "345 Annadale Road, Staten Island, New York"}}, {"geometry": {"type": "Point", "coordinates": [-74.19598479999999, 40.5352997]}, "type": "Feature", "properties": {"Type": "FDNY", "Name": "Engine 164/Ladder 84", "Address": "1560 Drumgoole Road West, Staten Island, New York"}}, {"geometry": {"type": "Point", "coordinates": [-74.213478, 40.55373900000001]}, "type": "Feature", "properties": {"Type": "FDNY", "Name": "Engine 168/EMS Station 23", "Address": "1100 Rossville Avenue, Staten Island, New York"}}, {"geometry": {"type": "Point", "coordinates": [-74.23892099999999, 40.512757]}, "type": "Feature", "properties": {"Type": "FDNY", "Name": "Engine 151/Ladder 76", "Address": "7219 Amboy Road, Staten Island, New York"}}]}