{"type": "FeatureCollection", "features": [{"geometry": {"type": "Point", "coordinates": [-73.9240962, 40.817374]}, "type": "Feature", "properties": {"Notes": "Adult Only", "Name": "Lincoln Medical & Mental Health Center", "Address": "234 East 149th Street Bronx, NY 10451"}}, {"geometry": {"type": "Point", "coordinates": [-73.9546173, 40.7644929]}, "type": "Feature", "properties": {"Notes": "Adult and Pediatric", "Name": "New York Presbyterian/ Weill Cornell Medical Center", "Address": "525 East 68th Street, New York, NY 10065"}}, {"geometry": {"type": "Point", "coordinates": [-73.8914036, 40.8524914]}, "type": "Feature", "properties": {"Notes": "Adult Only", "Name": "St. Barnabas Hospital", "Address": "4422 Third Avenue Bronx, New York 10457-2594"}}, {"geometry": {"type": "Point", "coordinates": [-73.961287, 40.8056323]}, "type": "Feature", "properties": {"Notes": "Adult Only", "Name": "St. Luke's/Roosevelt Hospital", "Address": "1111 Amsterdam Avenue New York, NY 10025"}}, {"geometry": {"type": "Point", "coordinates": [-74.10596199999999, 40.6357924]}, "type": "Feature", "properties": {"Notes": "Adult and Pediatric", "Name": "Richmond University Medical Center", "Address": "355 Bard Avenue Staten Island, NY 10310"}}, {"geometry": {"type": "Point", "coordinates": [-74.0858104, 40.5844375]}, "type": "Feature", "properties": {"Notes": "Adult and Pediatric", "Name": "Staten Island University Hospital North", "Address": "475 Seaview Avenue Staten Island, NY 10305"}}, {"geometry": {"type": "Point", "coordinates": [-73.9754976, 40.739217]}, "type": "Feature", "properties": {"Notes": "Adult and Pediatric", "Name": "Bellevue Hospital Center", "Address": "462 First Avenue New York, NY 10016"}}, {"geometry": {"type": "Point", "coordinates": [-73.826124, 40.747198]}, "type": "Feature", "properties": {"Notes": "Adult Only", "Name": "New York Hospital Medical Center of Queens", "Address": "56-45 Main Street Flushing, NY 11315"}}, {"geometry": {"type": "Point", "coordinates": [-73.8473559, 40.8561364]}, "type": "Feature", "properties": {"Notes": "Adult and Pediatric", "Name": "Jacobi Medical Center", "Address": "1400 Pelham Parkway South Bronx, NY 10461"}}, {"geometry": {"type": "Point", "coordinates": [-73.9125557, 40.6551816]}, "type": "Feature", "properties": {"Notes": "Adult Only", "Name": "Brookdale University Hospital and Medical Center", "Address": "1 Brookdale Plaza Brooklyn, NY 11212"}}, {"geometry": {"type": "Point", "coordinates": [-73.8861197, 40.744682]}, "type": "Feature", "properties": {"Notes": "Adult and Pediatric", "Name": "Elmhurst Hospital Center", "Address": "79-01 Broadway Elmhurst, NY 11373"}}, {"geometry": {"type": "Point", "coordinates": [-73.94018729999999, 40.8142282]}, "type": "Feature", "properties": {"Notes": "Adult and Pediatric", "Name": "Harlem Hospital Center", "Address": "506 Lenox Avenue New York, NY 10037"}}, {"geometry": {"type": "Point", "coordinates": [-73.81625989999999, 40.7004297]}, "type": "Feature", "properties": {"Notes": "Adult Only", "Name": "Jamaica Hospital Medical Center", "Address": "8900 Van Wyck Expressway Jamaica, NY 11418"}}, {"geometry": {"type": "Point", "coordinates": [-74.0215371, 40.6467581]}, "type": "Feature", "properties": {"Notes": "Adult Only", "Name": "Lutheran Medical Center", "Address": "150 55th Street Brooklyn, NY 11220"}}, {"geometry": {"type": "Point", "coordinates": [-73.9462238, 40.656571]}, "type": "Feature", "properties": {"Notes": "Adult and Pediatric", "Name": "Kings County Hospital Center", "Address": "451 Clarkson Avenue Brooklyn, NY 11203"}}]}